[
  {
    "Id": "1",
    "Name": "Asha Function Hall",
    "Address": "73-7-12,Donka Road,Opp Sweet Magic",
    "Area": "Patamata",
    "Pincode": "520010",
    "Phone": "0866 2494525, 9848110525",
    "Latitude": "16.49194444",
    "Longitude": "80.66583333",
    "Rent": "10000.0000",
    "Capacity": "500",
    "IsAirConditioned": "0",
    "IsActive": "1",
    "Photos":"/assets/images/noimage.jpg",
    "HasPhotos": "0"
  },
  {
    "Id": "2",
    "Name": "Sri Lakkireddy Narayanamagarla Kalyana Mandapam",
    "Address": "Swati Theatre Road,HB Colony",
    "Area": "Bhavani Puram",
    "Pincode": "521241",
    "Phone": "0866 2413407",
    "Latitude": "16.5325",
    "Longitude": "80.59694444",
    "Rent": "20000.0000",
    "Capacity": "800",
    "IsAirConditioned": "0",
    "IsActive": "1",
    "Photos":"/assets/images/noimage.jpg",
    "HasPhotos": "0"
  },
  {
    "Id": "3",
    "Name": "Sri Vidya Sadan",
    "Address": "Near Stella College",
    "Area": "Benz Circle",
    "Pincode": "520008",
    "Phone": "9440030116, 9963291166",
    "Latitude": "16.50138889",
    "Longitude": "80.65861111",
    "Rent": "20000.0000",
    "Capacity": "500",
    "IsAirConditioned": "0",
    "IsActive": "1",
    "Photos":"/assets/images/venues/3/1.JPG",
    "HasPhotos": "1"
  },
  {
    "Id": "4",
    "Name": "Sri Srinivasa Kalyana Mandapam",
    "Address": "Bandar Road",
    "Area": "Papulla Mill Centre",
    "Pincode": "520007",
    "Phone": "0866 2550394, 9290779684, 9290779685",
    "Latitude": "16.48583333",
    "Longitude": "80.68",
    "Rent": "25000.0000",
    "Capacity": "1000",
    "IsAirConditioned": "0",
    "IsActive": "1",
    "Photos":"/assets/images/noimage.jpg",
    "HasPhotos": "0"
  },
  {
    "Id": "5",
    "Name": "Funtimes Club",
    "Address": "Teachers Colony,Sai Baba Temple Road",
    "Area": "Patamata",
    "Pincode": "520008",
    "Phone": "9703329992",
    "Latitude": "16.50055556",
    "Longitude": "80.66388889",
    "Rent": "30000.0000",
    "Capacity": "1000",
    "IsAirConditioned": "1",
    "IsActive": "1",
    "Photos":"/assets/images/venues/5/1.jpg",
    "HasPhotos": "1"
  },
  {
    "Id": "6",
    "Name": "Lakshmi Narasimha Gardens",
    "Address": "Bandar Road,Opp Srinivasa Theatre,",
    "Area": "Poranki",
    "Pincode": "521137",
    "Phone": "9701104444",
    "Latitude": "16.47361111",
    "Longitude": "80.7125",
    "Rent": "40000.0000",
    "Capacity": "1000",
    "IsAirConditioned": "0",
    "IsActive": "1",
    "Photos":"/assets/images/noimage.jpg",
    "HasPhotos": "0"
  },
  {
    "Id": "7",
    "Name": "Paritala Omkar Kalyana Mandapam",
    "Address": "Bharati Nagar",
    "Area": "Bharatinagar",
    "Pincode": "520008",
    "Phone": "",
    "Latitude": "16.51138889",
    "Longitude": "80.67194444",
    "Rent": "40000.0000",
    "Capacity": "500",
    "IsAirConditioned": "1",
    "IsActive": "1",
    "Photos":"/assets/images/noimage.jpg",
    "HasPhotos": "0"
  },
  {
    "Id": "8",
    "Name": "Subhalagna Vedika",
    "Address": "Near Don Bosco School,Vijayanagar Colony",
    "Area": "Gurunanak Colony",
    "Pincode": "      ",
    "Phone": "9848992302",
    "Latitude": "16.50222222",
    "Longitude": "80.66833333",
    "Rent": "40000.0000",
    "Capacity": "500",
    "IsAirConditioned": "1",
    "IsActive": "1",
    "Photos":"/assets/images/noimage.jpg",
    "HasPhotos": "0"
  },
  {
    "Id": "9",
    "Name": "Sri Koraganji Surya Narayana Function Hall",
    "Address": "Gulam Muhaddin Street,Near Fish Market",
    "Area": "One Town",
    "Pincode": "520001",
    "Phone": "",
    "Latitude": "",
    "Longitude": "",
    "Rent": "50000.0000",
    "Capacity": "600",
    "IsAirConditioned": "1",
    "IsActive": "1",
    "Photos":"/assets/images/noimage.jpg",
    "HasPhotos": "0"
  },
  {
    "Id": "10",
    "Name": "Sree Rasthu Function Hall",
    "Address": "Near Reliance Fresh,Vinnakota Vari Street,Islampet",
    "Area": "One Town",
    "Pincode": "520001",
    "Phone": "9966998000, 9848630675, 9247199377",
    "Latitude": "16.51777778",
    "Longitude": "80.61138889",
    "Rent": "50000.0000",
    "Capacity": "1000",
    "IsAirConditioned": "1",
    "IsActive": "1",
    "Photos":"/assets/images/noimage.jpg",
    "HasPhotos": "0"
  },
  {
    "Id": "11",
    "Name": "Sri Desu Subbarao Nagaratnamma Vasavi Kalyana Mandapam",
    "Address": "Shivalayam Road",
    "Area": "Bhavani Puram",
    "Pincode": "521241",
    "Phone": "0866 6574485, 9246499154",
    "Latitude": "16.53083333",
    "Longitude": "80.59555556",
    "Rent": "50116.0000",
    "Capacity": "800",
    "IsAirConditioned": "1",
    "IsActive": "1",
    "Photos":"/assets/images/noimage.jpg",
    "HasPhotos": "0"
  },
  {
    "Id": "12",
    "Name": "Amma kalyana Mandapam",
    "Address": "ITI College Road,Siddhartha Nagar",
    "Area": "Sunapubatillu Centre",
    "Pincode": "520010",
    "Phone": "0866 6699084, 0866 2474984",
    "Latitude": "16.50805556",
    "Longitude": "80.65055556",
    "Rent": "55000.0000",
    "Capacity": "1000",
    "IsAirConditioned": "1",
    "IsActive": "1",
    "Photos":"/assets/images/noimage.jpg",
    "HasPhotos": "0"
  },
  {
    "Id": "13",
    "Name": "Sri Raghu Ram Vedika",
    "Address": "Mohandas Complex,Bandar Road",
    "Area": "Patamata",
    "Pincode": "520010",
    "Phone": "9440030116, 9963291166",
    "Latitude": "16.49472222",
    "Longitude": "80.66111111",
    "Rent": "60000.0000",
    "Capacity": "1000",
    "IsAirConditioned": "1",
    "IsActive": "1",
    "Photos":"/assets/images/noimage.jpg",
    "HasPhotos": "0"
  },
  {
    "Id": "14",
    "Name": "SVS Kalyana Mandapam",
    "Address": "NH5 Frontage Road,Opp Jyothi Mahal,Near Benz Circle",
    "Area": "Patamata Lanka",
    "Pincode": "520014",
    "Phone": "0866 2470563,9490754715",
    "Latitude": "16.49555556",
    "Longitude": "80.65111111",
    "Rent": "60000.0000",
    "Capacity": "1000",
    "IsAirConditioned": "1",
    "IsActive": "1",
    "Photos":"/assets/images/noimage.jpg",
    "HasPhotos": "0"
  },
  {
    "Id": "15",
    "Name": "Sri Datta Kalyana Mandapam",
    "Address": "Near Ayyapa Swamy Temple",
    "Area": "Gollapudi",
    "Pincode": "521225",
    "Phone": "0866 6456865",
    "Latitude": "16.54666667",
    "Longitude": "80.57583333",
    "Rent": "70000.0000",
    "Capacity": "1200",
    "IsAirConditioned": "1",
    "IsActive": "1",
    "Photos":"/assets/images/noimage.jpg",
    "HasPhotos": "0"
  },
  {
    "Id": "16",
    "Name": "Parinaya Kalyana Mandapam",
    "Address": "Near Varun Motors,Opp NTR Health University",
    "Area": "Currency Nagar",
    "Pincode": "521108",
    "Phone": "9390141440",
    "Latitude": "16.51666667",
    "Longitude": "80.67222222",
    "Rent": "80000.0000",
    "Capacity": "1000",
    "IsAirConditioned": "1",
    "IsActive": "1",
    "Photos":"/assets/images/venues/16/1.jpg",
    "HasPhotos": "1"
  },
  {
    "Id": "17",
    "Name": "Sri Sai Baba Kalyana Mandapam",
    "Address": "Bandar Road,Opp Auto Nagar Check Post",
    "Area": "Auto Nagar",
    "Pincode": "520007",
    "Phone": "9885253000",
    "Latitude": "16.49",
    "Longitude": "80.67055556",
    "Rent": "80000.0000",
    "Capacity": "1000",
    "IsAirConditioned": "1",
    "IsActive": "1",
    "Photos":"/assets/images/noimage.jpg",
    "HasPhotos": "0"
  },
  {
    "Id": "18",
    "Name": "Sri Sai Balaji Kalyana Vedika",
    "Address": "Bandar Road,Opp Srinivasa Theatre",
    "Area": "Poranki",
    "Pincode": "521137",
    "Phone": "9246412573, 9246452573",
    "Latitude": "16.47361111",
    "Longitude": "80.71277778",
    "Rent": "80000.0000",
    "Capacity": "800",
    "IsAirConditioned": "1",
    "IsActive": "1",
    "Photos":"/assets/images/noimage.jpg",
    "HasPhotos": "0"
  },
  {
    "Id": "19",
    "Name": "Sree Seetha Rama Gardens",
    "Address": "Bandar Road, Eedupugallu",
    "Area": "Kankipadu",
    "Pincode": "521151",
    "Phone": "9985011966, 0866 2821755, 0866 2821555",
    "Latitude": "16.45638889",
    "Longitude": "80.74027778",
    "Rent": "90000.0000",
    "Capacity": "2000",
    "IsAirConditioned": "1",
    "IsActive": "1",
    "Photos":"/assets/images/venues/19/1.JPG",
    "HasPhotos": "1"
  },
  {
    "Id": "20",
    "Name": "Subham Kalyana Vedika",
    "Address": "Eluru Road,Ramavarapadu Ring",
    "Area": "Ramavarapadu",
    "Pincode": "521108",
    "Phone": "9397970001",
    "Latitude": "16.52416667",
    "Longitude": "80.68027778",
    "Rent": "90000.0000",
    "Capacity": "1500",
    "IsAirConditioned": "1",
    "IsActive": "1",
    "Photos":"/assets/images/noimage.jpg",
    "HasPhotos": "0"
  },
  {
    "Id": "21",
    "Name": "Dhanekula Kalyana Mandapam",
    "Address": "Bandar Road,Sanath Nagar",
    "Area": "Papulla Mill Centre",
    "Pincode": "520007",
    "Phone": "0866 2554300, 9949911458",
    "Latitude": "16.48861111",
    "Longitude": "80.68194444",
    "Rent": "100000.0000",
    "Capacity": "1500",
    "IsAirConditioned": "1",
    "IsActive": "1",
    "Photos":"/assets/images/noimage.jpg",
    "HasPhotos": "0"
  },
  {
    "Id": "22",
    "Name": "Kilaru Anil Estates Kalyana Vedika",
    "Address": "Bandar Road,Near Priya Pickles,Penamaluru Mandal",
    "Area": "Penamaluru",
    "Pincode": "521139",
    "Phone": "9440214033,9490113680,0866 2585456,8008887575",
    "Latitude": "16.47138889",
    "Longitude": "80.71944444",
    "Rent": "100000.0000",
    "Capacity": "1000",
    "IsAirConditioned": "1",
    "IsActive": "1",
    "Photos":"/assets/images/venues/22/1.jpg",
    "HasPhotos": "1"
  },
  {
    "Id": "23",
    "Name": "Sri Padmavathi Kalyana Mandapam",
    "Address": "Near Ayyapa Swamy Temple",
    "Area": "Gollapudi",
    "Pincode": "521225",
    "Phone": "9848238688, 9849429599, 9848585121",
    "Latitude": "16.54805556",
    "Longitude": "80.57611111",
    "Rent": "100000.0000",
    "Capacity": "1200",
    "IsAirConditioned": "1",
    "IsActive": "1",
    "Photos":"/assets/images/noimage.jpg",
    "HasPhotos": "0"
  },
  {
    "Id": "24",
    "Name": "NAC Kalyana Vedika",
    "Address": "LIG-18,Opp Don Bosco School,Gurunanak Colony Road",
    "Area": "Gurunanak Colony",
    "Pincode": "520008",
    "Phone": "0866 2547111, 9542264999",
    "Latitude": "16.50277778",
    "Longitude": "80.66888889",
    "Rent": "100000.0000",
    "Capacity": "3000",
    "IsAirConditioned": "1",
    "IsActive": "1",
    "Photos":"/assets/images/venues/24/1.jpg",
    "HasPhotos": "1"
  },
  {
    "Id": "25",
    "Name": "Subhamastu Kalyana Vedika",
    "Address": "Near Gollapudi Wholesale Market,HB Colony",
    "Area": "Gollapudi",
    "Pincode": "521225",
    "Phone": "0866 2414440, 9493924440",
    "Latitude": "16.53833333",
    "Longitude": "80.59833333",
    "Rent": "100000.0000",
    "Capacity": "2000",
    "IsAirConditioned": "1",
    "IsActive": "1",
    "Photos":"/assets/images/noimage.jpg",
    "HasPhotos": "0"
  },
  {
    "Id": "26",
    "Name": "Samyuktha Vedika",
    "Address": "NH-5 Frontage Road,Teachers Colony,Near Saibaba Temple,Stella College Road",
    "Area": "Benz Circle",
    "Pincode": "520010",
    "Phone": "0866 6594567, 9949947087",
    "Latitude": "16.5194444",
    "Longitude": "80.67583333",
    "Rent": "100000.0000",
    "Capacity": "1000",
    "IsAirConditioned": "1",
    "IsActive": "1",
    "Photos":"/assets/images/venues/26/1.jpg",
    "HasPhotos": "1"
  },
  {
    "Id": "27",
    "Name": "Sai jewels kalyana mandapam",
    "Address": "Road No-1,Sai Baba Temple Road,Near Stella Complex,Teachers Colony",
    "Area": "Benz Circle",
    "Pincode": "520008",
    "Phone": "0866 6654660",
    "Latitude": "16.5025",
    "Longitude": "80.66361111",
    "Rent": "100000.0000",
    "Capacity": "1000",
    "IsAirConditioned": "1",
    "IsActive": "1",
    "Photos":"/assets/images/venues/27/1.jpg",
    "HasPhotos": "1"
  },
  {
    "Id": "28",
    "Name": "Vedika Kalyana Mandapam",
    "Address": "Near Anjaneya Swamy Temple,Benz Circle",
    "Area": "Benz Circle",
    "Pincode": "520008",
    "Phone": "9704783469, 9492223315",
    "Latitude": "16.49722222",
    "Longitude": "80.68194444",
    "Rent": "100000.0000",
    "Capacity": "2000",
    "IsAirConditioned": "1",
    "IsActive": "1",
    "Photos":"/assets/images/venues/28/1.jpg",
    "HasPhotos": "1"
  },
  {
    "Id": "29",
    "Name": "Aahvanam Kalyana Mandapam",
    "Address": "Bandar Road,Sanath Nagar",
    "Area": "Papulla Mill Centre",
    "Pincode": "520007",
    "Phone": "0866 2554300, 9949911458",
    "Latitude": "16.48861111",
    "Longitude": "80.68194444",
    "Rent": "120000.0000",
    "Capacity": "2000",
    "IsAirConditioned": "1",
    "IsActive": "1",
    "Photos":"/assets/images/noimage.jpg",
    "HasPhotos": "0"
  },
  {
    "Id": "30",
    "Name": "Mana Kalyana Vedika",
    "Address": "Road No-2,Dr.Pinnamaneni Teachers colony,Ashok Nagar",
    "Area": "Ashok Nagar",
    "Pincode": "520007",
    "Phone": "9399934570,8341577417,0866 2550405,0866 2550505",
    "Latitude": "16.48861111",
    "Longitude": "80.68388889",
    "Rent": "150000.0000",
    "Capacity": "2000",
    "IsAirConditioned": "1",
    "IsActive": "1",
    "Photos":"/assets/images/venues/30/1.jpg",
    "HasPhotos": "1"
  },
  {
    "Id": "31",
    "Name": "Sri Sesha Sai Kalyana Vedika",
    "Address": "Behind HDFC Bank,Opp M&M Showroom,Valluri complex,Bandar Road",
    "Area": "P&T Colony",
    "Pincode": "520010",
    "Phone": "0866 2492272, 0866 2494926, 9490754713,9490754708",
    "Latitude": "16.49972222",
    "Longitude": "80.64916667",
    "Rent": "150000.0000",
    "Capacity": "2500",
    "IsAirConditioned": "1",
    "IsActive": "1",
    "Photos":"/assets/images/venues/31/1.jpg",
    "HasPhotos": "1"
  },
  {
    "Id": "32",
    "Name": "24K Golden Events",
    "Address": "D.No: 3-34/2,Eluru Road,Enikepadu",
    "Area": "Enikepadu",
    "Pincode": "521108",
    "Phone": "0866 2844116, 9948411116, 9948611116",
    "Latitude": "16.51777778",
    "Longitude": "80.69805556",
    "Rent": "250000.0000",
    "Capacity": "5000",
    "IsAirConditioned": "1",
    "IsActive": "1",
    "Photos":"/assets/images/venues/32/1.jpg",
    "HasPhotos": "1"
  },
  {
    "Id": "33",
    "Name": "A Convention Center",
    "Address": "40-5-6A,Valluru Poorna Chandra Rao Road,Brundavan Colony",
    "Area": "Labbipet",
    "Pincode": "520010",
    "Phone": "0866 2472345, 9248007818, 9248008818",
    "Latitude": "16.49722222",
    "Longitude": "80.64805556",
    "Rent": "250000.0000",
    "Capacity": "3000",
    "IsAirConditioned": "1",
    "IsActive": "1",
    "Photos":"/assets/images/venues/33/1.JPG",
    "HasPhotos": "1"
  },
  {
    "Id": "34",
    "Name": "Tankasala Sree Seetha Ramulu Vari Kalyana Mandapam",
    "Address": "Eluru Road,Enikepadu",
    "Area": "Enikepadu",
    "Pincode": "521108",
    "Phone": "0866 2843255, 0866 2842888, 9440175144,8885587888",
    "Latitude": "16.52777778",
    "Longitude": "80.69472222",
    "Rent": "250000.0000",
    "Capacity": "4000",
    "IsAirConditioned": "1",
    "IsActive": "1",
    "Photos":"/assets/images/venues/34/1.JPG",
    "HasPhotos": "1"
  },
  {
    "Id": "35",
    "Name": "Koduri Function Hall",
    "Address": "24-28/4-10C,BRTS Road,Opp SN Puram Railway Quarters",
    "Area": "Durga Puram",
    "Pincode": "520003",
    "Phone": "9440026677, 9441441551, 0866 2440234",
    "Latitude": "16.52194444",
    "Longitude": "80.6425",
    "Rent": "0.0000",
    "Capacity": "0",
    "IsAirConditioned": "1",
    "IsActive": "0",
    "Photos":"/assets/images/noimage.jpg",
    "HasPhotos": "0"
  },
  {
    "Id": "36",
    "Name": "The Krishna District Lorry Owners Association Hall",
    "Address": "Chandramouli Puram",
    "Area": "Benz Circle",
    "Pincode": "520010",
    "Phone": "0866  2477742,0866 2473235,9701773344",
    "Latitude": "16.49694444",
    "Longitude": "80.6525",
    "Rent": "0.0000",
    "Capacity": "0",
    "IsAirConditioned": "1",
    "IsActive": "0",
    "Photos":"/assets/images/noimage.jpg",
    "HasPhotos": "0"
  },
  {
    "Id": "37",
    "Name": "Kandukuri Kalyana Mandapam",
    "Address": "Near Gymkana Grounds,Gandhi Nagar",
    "Area": "Gandhi Nagar",
    "Pincode": "520003",
    "Phone": "",
    "Latitude": "16.51933333",
    "Longitude": "80.6183333",
    "Rent": "0.0000",
    "Capacity": "0",
    "IsAirConditioned": "0",
    "IsActive": "0",
    "Photos":"/assets/images/noimage.jpg",
    "HasPhotos": "0"
  },
  {
    "Id": "38",
    "Name": "Sri Vasavi Seva Sangam",
    "Address": "D.No: 41-4-14,Metla Bazar,Krishna Lanka",
    "Area": "Krishna Lanka",
    "Pincode": "520013",
    "Phone": "0866 2523042",
    "Latitude": "",
    "Longitude": "",
    "Rent": "0.0000",
    "Capacity": "0",
    "IsAirConditioned": "1",
    "IsActive": "0",
    "Photos":"/assets/images/noimage.jpg",
    "HasPhotos": "0"
  },
  {
    "Id": "39",
    "Name": "Milk Project Function Hall",
    "Address": "Near Milk Project,Chitti Nagar",
    "Area": "Milk Project",
    "Pincode": "520009",
    "Phone": "9703975582, 9441418954",
    "Latitude": "16.53944444",
    "Longitude": "80.61416667",
    "Rent": "0.0000",
    "Capacity": "1000",
    "IsAirConditioned": "0",
    "IsActive": "0",
    "Photos":"/assets/images/noimage.jpg",
    "HasPhotos": "0"
  },
  {
    "Id": "40",
    "Name": "Nadars Function Hall",
    "Address": "23-2-6, Labour Office Near Maruthi Gas Agency, Bhagath Singh Road Or vt Press Road",
    "Area": "Satya Narayana Puram",
    "Pincode": "520011",
    "Phone": "9393422144,0866 6462144",
    "Latitude": "16.52194444",
    "Longitude": "80.6375",
    "Rent": "0.0000",
    "Capacity": "0",
    "IsAirConditioned": "1",
    "IsActive": "0",
    "Photos":"/assets/images/noimage.jpg",
    "HasPhotos": "0"
  },
  {
    "Id": "41",
    "Name": "The Automobile Technicians Association Hall",
    "Address": "21-10-11 Main Road ,Autonagar,Near sub station",
    "Area": "Auto Nagar",
    "Pincode": "520007",
    "Phone": "0866 2543535,0866 2540606",
    "Latitude": "16.50083333",
    "Longitude": "80.67222222",
    "Rent": "0.0000",
    "Capacity": "0",
    "IsAirConditioned": "0",
    "IsActive": "0",
    "Photos":"/assets/images/noimage.jpg",
    "HasPhotos": "0"
  },
  {
    "Id": "42",
    "Name": "TTD Kalyana Mandapam",
    "Address": "Punnama Thota,Behind All India Radio,MG Road",
    "Area": "Bandar Road",
    "Pincode": "520010",
    "Phone": "0866 2470377",
    "Latitude": "16.5075",
    "Longitude": "80.63555556",
    "Rent": "0.0000",
    "Capacity": "0",
    "IsAirConditioned": "0",
    "IsActive": "0",
    "Photos":"/assets/images/noimage.jpg",
    "HasPhotos": "0"
  },
  {
    "Id": "43",
    "Name": "Vigneshwara Kalyana Mandapam",
    "Address": "Bandar Road,Sanath Nagar",
    "Area": "Papulla Mill Centre",
    "Pincode": "520007",
    "Phone": "0866 2554300, 9949911458",
    "Latitude": "16.48861111",
    "Longitude": "80.68194444",
    "Rent": "40000.0000",
    "Capacity": "500",
    "IsAirConditioned": "1",
    "IsActive": "1",
    "Photos":"/assets/images/noimage.jpg",
    "HasPhotos": "0"
  },
  {
    "Id": "44",
    "Name": "N Convention Center",
    "Address": "B.R. Ambedkar Road, Near Sitara Theater",
    "Area": "Vidyadharapuram",
    "Pincode": "520012",
    "Phone": "93909 94455",
    "Latitude": "16.536564",
    "Longitude": "80.606522",
    "Rent": "40000.0000",
    "Capacity": "1000",
    "IsAirConditioned": "1",
    "IsActive": "1",
    "Photos":"/assets/images/venues/44/1.jpg",
    "HasPhotos": "1"
  }
]